[
  {
    "semester": "1º Semestre",
    "subjects": [
      {
        "name": "Português instrumental",
        "hours": "60h",
        "requirements": "Nenhum",
        "type": "OBG",
        "syllabusLink": ""
      },
      {
        "name": "Fundamentos da informática",
        "hours": "60h",
        "requirements": "Nenhum",
        "type": "OBG",
        "syllabusLink": ""
      },
      {
        "name": "Inglês instrumental",
        "hours": "40h",
        "requirements": "Nenhum",
        "type": "OBG",
        "syllabusLink": ""
      },
      {
        "name": "Matemática aplicada",
        "hours": "80h",
        "requirements": "Nenhum",
        "type": "OBG",
        "syllabusLink": ""
      },
      {
        "name": "Rede de computadores",
        "hours": "80h",
        "requirements": "Nenhum",
        "type": "OBG",
        "syllabusLink": ""
      },
      {
        "name": "Lógica de programação e estrutura de dados",
        "hours": "100h",
        "requirements": "Nenhum",
        "type": "OBG",
        "syllabusLink": ""
      },
      {
        "name": "Segurança do trabalho",
        "hours": "40h",
        "requirements": "Nenhum",
        "type": "OBG",
        "syllabusLink": ""
      }
    ]
  },
  {
    "semester": "2º Semestre",
    "subjects": [
      {
        "name": "Sistemas operacionais",
        "hours": "60h",
        "requirements": "Nenhum",
        "type": "OBG",
        "syllabusLink": ""
      },
      {
        "name": "Segurança de Sistemas para internet",
        "hours": "60h",
        "requirements": "Nenhum",
        "type": "OBG",
        "syllabusLink": ""
      },
      {
        "name": "Banco de dados",
        "hours": "80h",
        "requirements": "Nenhum",
        "type": "OBG",
        "syllabusLink": ""
      },
      {
        "name": "Desenvolvimento para web 1",
        "hours": "80h",
        "requirements": "Nenhum",
        "type": "OBG",
        "syllabusLink": ""
      },
      {
        "name": "Ética profissional e cidadania",
        "hours": "40h",
        "requirements": "Nenhum",
        "type": "OBG",
        "syllabusLink": ""
      },
      {
        "name": "Programação Orientada a objeto",
        "hours": "60h",
        "requirements": "Nenhum",
        "type": "OBG",
        "syllabusLink": ""
      },
      {
        "name": "Projeto e Prática",
        "hours": "80h",
        "requirements": "Nenhum",
        "type": "OBG",
        "syllabusLink": ""
      }
    ]
  },
  {
    "semester": "3º Semestre",
    "subjects": [
      {
        "name": "Interação humano computador",
        "hours": "60h",
        "requirements": "Nenhum",
        "type": "OBG",
        "syllabusLink": ""
      },
      {
        "name": "Engenharia de software",
        "hours": "80h",
        "requirements": "Nenhum",
        "type": "OBG",
        "syllabusLink": ""
      },
      {
        "name": "Implantação e Administração de serviços web",
        "hours": "100h",
        "requirements": "Nenhum",
        "type": "OBG",
        "syllabusLink": ""
      },
      {
        "name": "Desenvolvimento para web 2",
        "hours": "80h",
        "requirements": "Nenhum",
        "type": "OBG",
        "syllabusLink": ""
      },
      {
        "name": "Empreendedorismo",
        "hours": "40h",
        "requirements": "Nenhum",
        "type": "OBG",
        "syllabusLink": ""
      },
      {
        "name": "Projeto e Prática 2",
        "hours": "100h",
        "requirements": "Nenhum",
        "type": "OBG",
        "syllabusLink": ""
      }
    ]
  }
]
